header: 
  seq: 440088
  stamp: 
    secs: 1442601897
    nsecs: 776715947
  frame_id: ''
name: 
  - head_nod
  - head_pan
  - left_e0
  - left_e1
  - left_s0
  - left_s1
  - left_w0
  - left_w1
  - left_w2
  - right_e0
  - right_e1
  - right_s0
  - right_s1
  - right_w0
  - right_w1
  - right_w2
  - torso_t0
position: [0.0, -0.06327670742797852, -0.015723303057861328, -0.04793689956665039, 0.01955825502319336, 0.06250971703491211, 0.17640779040527346, -0.004218447161865235, -1.7675293608215332, -0.07593204891357422, 0.9111845869628907, 0.041033986029052734, 0.4728495773254395, -0.38081073015747074, -0.12962137642822266, 3.0418838989013675, -12.565987104803467]
velocity: [0.0, -0.00786464758515358, 0.0014980281114578247, 0.005992112445831299, 0.005617605417966843, -0.005617605417966843, 0.015354788142442705, 0.024342956811189653, -0.007115633529424668, 0.001872535139322281, -0.004119577306509018, -0.020223379504680634, -0.008613661640882493, -0.013856760030984879, -0.004868591362237931, -0.01984887247681618, 0.0]
effort: [0.0, 0.0, -1.02, -17.54, -1.34, -8.752, 0.144, -2.548, 0.028, -0.624, -4.104, 0.496, 3.932, 0.088, -0.732, -0.224, -20.48]
---
header: 
  seq: 440089
  stamp: 
    secs: 1442601897
    nsecs: 786729671
  frame_id: ''
name: 
  - head_nod
  - head_pan
  - left_e0
  - left_e1
  - left_s0
  - left_s1
  - left_w0
  - left_w1
  - left_w2
  - right_e0
  - right_e1
  - right_s0
  - right_s1
  - right_w0
  - right_w1
  - right_w2
  - torso_t0
position: [0.0, -0.06366020262451172, -0.015723303057861328, -0.04793689956665039, 0.02032524541625977, 0.06250971703491211, 0.17602429520874024, -0.005368932751464844, -1.7690633416076662, -0.07554855371704101, 0.9111845869628907, 0.041033986029052734, 0.4728495773254395, -0.3804272349609375, -0.12923788123168947, 3.041116908508301, -12.565987104803467]
velocity: [0.0, -0.006741126501560212, -0.007490140557289124, -0.001872535139322281, -0.01610380219817162, -0.006366619473695756, -0.0026215491950511934, 0.022095914644002915, 0.005617605417966843, 0.01610380219817162, 0.005617605417966843, -0.004119577306509018, 0.0003745070278644562, 0.00898816866874695, -0.007115633529424668, 0.010111689752340317, 0.0]
effort: [0.0, 0.0, -1.116, -17.568, -1.368, -8.724, 0.128, -2.56, 0.016, -0.656, -4.136, 0.776, 3.964, 0.08, -0.712, -0.212, -20.48]
---
header: 
  seq: 440090
  stamp: 
    secs: 1442601897
    nsecs: 796716796
  frame_id: ''
name: 
  - head_nod
  - head_pan
  - left_e0
  - left_e1
  - left_s0
  - left_s1
  - left_w0
  - left_w1
  - left_w2
  - right_e0
  - right_e1
  - right_s0
  - right_s1
  - right_w0
  - right_w1
  - right_w2
  - torso_t0
position: [0.0, -0.06366020262451172, -0.015723303057861328, -0.04716990917358399, 0.01955825502319336, 0.06250971703491211, 0.17602429520874024, -0.004985437554931641, -1.7686798464111328, -0.07631554411010742, 0.9108010917663575, 0.039500005242919925, 0.4740000629150391, -0.38081073015747074, -0.13038836682128907, 3.041116908508301, -12.565987104803467]
velocity: [0.0, 0.005992112445831299, 0.001872535139322281, -0.01685281625390053, -0.005617605417966843, 0.008239154613018036, -0.019099858421087267, -0.022095914644002915, 0.01872535139322281, 0.006741126501560212, 0.0022470421671867374, -0.001872535139322281, -0.0014980281114578247, 0.013107745975255967, 0.011609717863798143, 0.011609717863798143, 0.0]
effort: [0.0, 0.0, -1.052, -17.54, -1.212, -8.724, 0.128, -2.548, 0.016, -0.688, -4.136, 0.808, 3.932, 0.072, -0.732, -0.232, -20.48]
---
header: 
  seq: 440091
  stamp: 
    secs: 1442601897
    nsecs: 806717854
  frame_id: ''
name: 
  - head_nod
  - head_pan
  - left_e0
  - left_e1
  - left_s0
  - left_s1
  - left_w0
  - left_w1
  - left_w2
  - right_e0
  - right_e1
  - right_s0
  - right_s1
  - right_w0
  - right_w1
  - right_w2
  - torso_t0
position: [0.0, -0.06366020262451172, -0.015339807861328126, -0.046786413977050786, 0.019174759826660157, 0.06212622183837891, 0.17602429520874024, -0.004985437554931641, -1.7682963512145997, -0.07631554411010742, 0.9108010917663575, 0.041033986029052734, 0.47323307252197266, -0.3804272349609375, -0.12962137642822266, 3.041116908508301, -12.565987104803467]
velocity: [0.0, 0.009362675696611405, 0.005617605417966843, -0.006741126501560212, -0.008239154613018036, 0.006366619473695756, -0.003745070278644562, -0.018350844365358353, 0.0029960562229156495, -0.01685281625390053, 0.008613661640882493, 0.0029960562229156495, -0.005617605417966843, 0.0, 0.004119577306509018, -0.017601830309629442, 0.0]
effort: [0.0, 0.0, -1.052, -17.508, -1.276, -8.696, 0.128, -2.548, 0.028, -0.688, -4.196, 0.684, 3.932, 0.072, -0.7, -0.224, -20.48]
---
header: 
  seq: 440092
  stamp: 
    secs: 1442601897
    nsecs: 816715365
  frame_id: ''
name: 
  - head_nod
  - head_pan
  - left_e0
  - left_e1
  - left_s0
  - left_s1
  - left_w0
  - left_w1
  - left_w2
  - right_e0
  - right_e1
  - right_s0
  - right_s1
  - right_w0
  - right_w1
  - right_w2
  - torso_t0
position: [0.0, -0.06366020262451172, -0.015723303057861328, -0.04755340437011719, 0.019174759826660157, 0.06289321223144531, 0.17525730481567384, -0.004985437554931641, -1.7682963512145997, -0.07593204891357422, 0.9104175965698242, 0.04141748122558594, 0.4736165677185059, -0.3804272349609375, -0.12847089083862306, 3.0403499181152345, -12.565987104803467]
velocity: [0.0, -0.0011235210835933687, 0.003745070278644562, 0.004119577306509018, -0.007115633529424668, 0.004119577306509018, -0.012733238947391512, 0.004119577306509018, -0.0179763373374939, -0.00786464758515358, 0.010486196780204774, 0.04681337848305703, 0.0014980281114578247, 0.005617605417966843, -0.014231267058849336, 0.0007490140557289124, 0.0]
effort: [0.0, 0.0, -1.212, -17.48, -1.276, -8.752, 0.128, -2.54, 0.036, -0.624, -4.164, 0.716, 3.964, 0.08, -0.732, -0.204, -20.48]
---
header: 
  seq: 440093
  stamp: 
    secs: 1442601897
    nsecs: 826705063
  frame_id: ''
name: 
  - head_nod
  - head_pan
  - left_e0
  - left_e1
  - left_s0
  - left_s1
  - left_w0
  - left_w1
  - left_w2
  - right_e0
  - right_e1
  - right_s0
  - right_s1
  - right_w0
  - right_w1
  - right_w2
  - torso_t0
position: [0.0, -0.06366020262451172, -0.014956312664794923, -0.04716990917358399, 0.019941750219726564, 0.06289321223144531, 0.17602429520874024, -0.005368932751464844, -1.7686798464111328, -0.07593204891357422, 0.9115680821594239, 0.04141748122558594, 0.47323307252197266, -0.3804272349609375, -0.12962137642822266, 3.041500403704834, -12.565987104803467]
velocity: [0.0, 0.011235210835933686, -0.005617605417966843, -0.0003745070278644562, 0.017227323281764986, -0.005992112445831299, -0.011984224891662598, -0.006741126501560212, 0.01610380219817162, -0.004868591362237931, -0.00786464758515358, 0.004494084334373475, -0.006741126501560212, 0.004868591362237931, 0.017227323281764986, -0.003745070278644562, 0.0]
effort: [0.0, 0.0, -1.148, -17.508, -1.276, -8.752, 0.108, -2.48, 0.028, -0.532, -4.136, 0.748, 3.872, 0.08, -0.732, -0.232, -20.48]
---
header: 
  seq: 440094
  stamp: 
    secs: 1442601897
    nsecs: 836715039
  frame_id: ''
name: 
  - head_nod
  - head_pan
  - left_e0
  - left_e1
  - left_s0
  - left_s1
  - left_w0
  - left_w1
  - left_w2
  - right_e0
  - right_e1
  - right_s0
  - right_s1
  - right_w0
  - right_w1
  - right_w2
  - torso_t0
position: [0.0, -0.06327670742797852, -0.015339807861328126, -0.04793689956665039, 0.01955825502319336, 0.06289321223144531, 0.17564080001220705, -0.004985437554931641, -1.7682963512145997, -0.07554855371704101, 0.9123350725524902, 0.041033986029052734, 0.4736165677185059, -0.3800437397644043, -0.12885438603515625, 3.040733413311768, -12.565987104803467]
velocity: [0.0, 0.0011235210835933687, -0.005243098390102387, -0.0014980281114578247, 0.010111689752340317, -0.007115633529424668, 0.008239154613018036, -0.010486196780204774, 0.0022470421671867374, 0.008239154613018036, -0.010111689752340317, -0.009737182724475862, 0.004494084334373475, -0.0029960562229156495, 0.0022470421671867374, -0.008239154613018036, 0.0]
effort: [0.0, 0.0, -1.02, -17.54, -1.432, -8.752, 0.136, -2.5, 0.016, -0.468, -4.072, 0.56, 3.932, 0.088, -0.748, -0.212, -20.48]
---
header: 
  seq: 440095
  stamp: 
    secs: 1442601897
    nsecs: 846714288
  frame_id: ''
name: 
  - head_nod
  - head_pan
  - left_e0
  - left_e1
  - left_s0
  - left_s1
  - left_w0
  - left_w1
  - left_w2
  - right_e0
  - right_e1
  - right_s0
  - right_s1
  - right_w0
  - right_w1
  - right_w2
  - torso_t0
position: [0.0, -0.06327670742797852, -0.015339807861328126, -0.04793689956665039, 0.019174759826660157, 0.06250971703491211, 0.17602429520874024, -0.0065194183410644535, -1.7682963512145997, -0.07593204891357422, 0.9111845869628907, 0.042184471618652346, 0.4740000629150391, -0.38081073015747074, -0.12885438603515625, 3.041500403704834, -12.565987104803467]
velocity: [0.0, -0.013482253003120424, 0.01086070380806923, -0.011984224891662598, -0.019099858421087267, 0.011984224891662598, 0.016478309226036072, 0.003370563250780106, 0.03145859034061432, -0.011609717863798143, 0.007490140557289124, -0.008613661640882493, 0.004494084334373475, 0.0022470421671867374, -0.011235210835933686, -0.00786464758515358, 0.0]
effort: [0.0, 0.0, -1.148, -17.54, -1.4, -8.752, 0.128, -2.56, 0.016, -0.624, -4.136, 0.776, 3.996, 0.08, -0.732, -0.232, -20.48]
---
header: 
  seq: 440096
  stamp: 
    secs: 1442601897
    nsecs: 856717326
  frame_id: ''
name: 
  - head_nod
  - head_pan
  - left_e0
  - left_e1
  - left_s0
  - left_s1
  - left_w0
  - left_w1
  - left_w2
  - right_e0
  - right_e1
  - right_s0
  - right_s1
  - right_w0
  - right_w1
  - right_w2
  - torso_t0
position: [0.0, -0.06327670742797852, -0.015339807861328126, -0.048320394763183595, 0.019174759826660157, 0.06250971703491211, 0.17679128560180665, -0.004985437554931641, -1.7682963512145997, -0.07593204891357422, 0.9115680821594239, 0.04065049083251954, 0.4728495773254395, -0.3804272349609375, -0.12962137642822266, 3.041500403704834, -12.565987104803467]
velocity: [0.0, 0.004494084334373475, -0.0026215491950511934, -0.020223379504680634, -0.008239154613018036, 0.005617605417966843, 0.0014980281114578247, 0.006366619473695756, 0.012358731919527055, 0.0, 0.008239154613018036, -0.009737182724475862, -0.005617605417966843, 0.016478309226036072, -0.00786464758515358, 0.013856760030984879, 0.0]
effort: [0.0, 0.0, -0.988, -17.48, -1.34, -8.752, 0.128, -2.528, 0.028, -0.624, -4.136, 0.776, 3.9, 0.08, -0.748, -0.224, -20.48]
---
header: 
  seq: 440097
  stamp: 
    secs: 1442601897
    nsecs: 866715390
  frame_id: ''
name: 
  - head_nod
  - head_pan
  - left_e0
  - left_e1
  - left_s0
  - left_s1
  - left_w0
  - left_w1
  - left_w2
  - right_e0
  - right_e1
  - right_s0
  - right_s1
  - right_w0
  - right_w1
  - right_w2
  - torso_t0
position: [0.0, -0.06289321223144531, -0.015339807861328126, -0.04755340437011719, 0.019174759826660157, 0.061742726641845706, 0.17602429520874024, -0.004985437554931641, -1.7690633416076662, -0.07554855371704101, 0.9111845869628907, 0.04065049083251954, 0.4736165677185059, -0.3804272349609375, -0.12923788123168947, 3.0403499181152345, -12.565987104803467]
velocity: [0.0, -0.004119577306509018, -0.005992112445831299, -0.0026215491950511934, -0.006741126501560212, -0.0026215491950511934, 0.015354788142442705, -0.011235210835933686, -0.026215491950511934, -0.00786464758515358, -0.0029960562229156495, -0.008613661640882493, -0.005617605417966843, -0.007490140557289124, -0.010486196780204774, -0.00898816866874695, 0.0]
effort: [0.0, 0.0, -0.988, -17.508, -1.276, -8.752, 0.144, -2.548, 0.016, -0.532, -4.136, 0.808, 3.9, 0.072, -0.732, -0.212, -20.48]
---
header: 
  seq: 440098
  stamp: 
    secs: 1442601897
    nsecs: 876716962
  frame_id: ''
name: 
  - head_nod
  - head_pan
  - left_e0
  - left_e1
  - left_s0
  - left_s1
  - left_w0
  - left_w1
  - left_w2
  - right_e0
  - right_e1
  - right_s0
  - right_s1
  - right_w0
  - right_w1
  - right_w2
  - torso_t0
position: [0.0, -0.06289321223144531, -0.014956312664794923, -0.04716990917358399, 0.018791264630126956, 0.06250971703491211, 0.17602429520874024, -0.005368932751464844, -1.7686798464111328, -0.07631554411010742, 0.9111845869628907, 0.04065049083251954, 0.47323307252197266, -0.38081073015747074, -0.13038836682128907, 3.040733413311768, -12.565987104803467]
velocity: [0.0, 0.0011235210835933687, -0.004868591362237931, 0.015354788142442705, 0.015354788142442705, -0.023968449783325196, 0.013482253003120424, 0.011984224891662598, -0.012733238947391512, -0.011984224891662598, -0.02284492869973183, -0.006741126501560212, 0.011984224891662598, -0.016478309226036072, -0.004494084334373475, 0.0029960562229156495, 0.0]
effort: [0.0, 0.0, -1.084, -17.54, -1.4, -8.724, 0.128, -2.5, 0.028, -0.592, -4.136, 0.84, 3.964, 0.072, -0.748, -0.224, -20.48]
---
header: 
  seq: 440099
  stamp: 
    secs: 1442601897
    nsecs: 886716393
  frame_id: ''
name: 
  - head_nod
  - head_pan
  - left_e0
  - left_e1
  - left_s0
  - left_s1
  - left_w0
  - left_w1
  - left_w2
  - right_e0
  - right_e1
  - right_s0
  - right_s1
  - right_w0
  - right_w1
  - right_w2
  - torso_t0
position: [0.0, -0.06250971703491211, -0.015339807861328126, -0.04793689956665039, 0.01955825502319336, 0.06250971703491211, 0.17564080001220705, -0.005752427947998047, -1.7690633416076662, -0.07554855371704101, 0.9111845869628907, 0.041033986029052734, 0.4736165677185059, -0.3804272349609375, -0.12962137642822266, 3.040733413311768, -12.565987104803467]
velocity: [0.0, 0.011984224891662598, 0.005243098390102387, -0.013107745975255967, 0.0026215491950511934, 0.016478309226036072, 0.0014980281114578247, 0.003745070278644562, 0.003370563250780106, -0.01872535139322281, 0.004494084334373475, 0.0022470421671867374, -0.010111689752340317, -0.0014980281114578247, -0.0014980281114578247, -0.02059788653254509, 0.0]
effort: [0.0, 0.0, -1.052, -17.568, -1.368, -8.752, 0.136, -2.512, 0.028, -0.532, -4.136, 0.84, 3.964, 0.088, -0.732, -0.232, -20.48]
---
header: 
  seq: 440100
  stamp: 
    secs: 1442601897
    nsecs: 896678444
  frame_id: ''
name: 
  - head_nod
  - head_pan
  - left_e0
  - left_e1
  - left_s0
  - left_s1
  - left_w0
  - left_w1
  - left_w2
  - right_e0
  - right_e1
  - right_s0
  - right_s1
  - right_w0
  - right_w1
  - right_w2
  - torso_t0
position: [0.0, -0.06289321223144531, -0.015339807861328126, -0.048320394763183595, 0.01955825502319336, 0.06289321223144531, 0.17525730481567384, -0.005752427947998047, -1.7690633416076662, -0.07593204891357422, 0.9111845869628907, 0.041033986029052734, 0.47323307252197266, -0.38081073015747074, -0.12885438603515625, 3.041116908508301, -12.565987104803467]
velocity: [0.0, -0.0011235210835933687, 0.004494084334373475, -0.005992112445831299, 0.004119577306509018, 0.016478309226036072, -0.03557816764712334, -0.006366619473695756, -0.020223379504680634, 0.010111689752340317, 0.00898816866874695, -0.011235210835933686, -0.013107745975255967, 0.012358731919527055, 0.006366619473695756, -0.0029960562229156495, 0.0]
effort: [0.0, 0.0, -1.052, -17.48, -1.12, -8.752, 0.144, -2.512, 0.016, -0.468, -4.104, 0.84, 3.964, 0.064, -0.74, -0.204, -20.48]
---
header: 
  seq: 440101
  stamp: 
    secs: 1442601897
    nsecs: 906715034
  frame_id: ''
name: 
  - head_nod
  - head_pan
  - left_e0
  - left_e1
  - left_s0
  - left_s1
  - left_w0
  - left_w1
  - left_w2
  - right_e0
  - right_e1
  - right_s0
  - right_s1
  - right_w0
  - right_w1
  - right_w2
  - torso_t0
position: [0.0, -0.06289321223144531, -0.015339807861328126, -0.0487038899597168, 0.02032524541625977, 0.06289321223144531, 0.17640779040527346, -0.004985437554931641, -1.7690633416076662, -0.07554855371704101, 0.9115680821594239, 0.03988350043945313, 0.4728495773254395, -0.3804272349609375, -0.12923788123168947, 3.0418838989013675, -12.565987104803467]
velocity: [0.0, -0.005992112445831299, -0.009362675696611405, 0.0011235210835933687, 0.012733238947391512, 0.013107745975255967, 0.011235210835933686, -0.01984887247681618, -0.004868591362237931, 0.025091970866918566, -0.008613661640882493, -0.003745070278644562, 0.0029960562229156495, 0.0029960562229156495, -0.009737182724475862, 0.014231267058849336, 0.0]
effort: [0.0, 0.0, -1.02, -17.508, -1.496, -8.696, 0.156, -2.52, 0.016, -0.5, -4.136, 0.808, 3.964, 0.08, -0.712, -0.224, -20.48]
---
header: 
  seq: 440102
  stamp: 
    secs: 1442601897
    nsecs: 916715229
  frame_id: ''
name: 
  - head_nod
  - head_pan
  - left_e0
  - left_e1
  - left_s0
  - left_s1
  - left_w0
  - left_w1
  - left_w2
  - right_e0
  - right_e1
  - right_s0
  - right_s1
  - right_w0
  - right_w1
  - right_w2
  - torso_t0
position: [0.0, -0.06366020262451172, -0.015339807861328126, -0.048320394763183595, 0.019174759826660157, 0.06250971703491211, 0.17602429520874024, -0.005368932751464844, -1.7686798464111328, -0.07593204891357422, 0.9111845869628907, 0.03988350043945313, 0.47323307252197266, -0.38081073015747074, -0.12923788123168947, 3.041116908508301, -12.565987104803467]
velocity: [0.0, -0.007115633529424668, 0.0029960562229156495, 0.0026215491950511934, 0.003370563250780106, -0.018350844365358353, 0.013856760030984879, -0.017601830309629442, 0.02247042167186737, 0.01086070380806923, -0.001872535139322281, -0.031084083312749866, -0.010111689752340317, -0.004119577306509018, 0.011235210835933686, 0.008239154613018036, 0.0]
effort: [0.0, 0.0, -0.988, -17.508, -1.34, -8.724, 0.136, -2.512, 0.008, -0.624, -4.104, 0.776, 3.932, 0.088, -0.76, -0.232, -20.48]
---
header: 
  seq: 440103
  stamp: 
    secs: 1442601897
    nsecs: 926716043
  frame_id: ''
name: 
  - head_nod
  - head_pan
  - left_e0
  - left_e1
  - left_s0
  - left_s1
  - left_w0
  - left_w1
  - left_w2
  - right_e0
  - right_e1
  - right_s0
  - right_s1
  - right_w0
  - right_w1
  - right_w2
  - torso_t0
position: [0.0, -0.06327670742797852, -0.015339807861328126, -0.0487038899597168, 0.01955825502319336, 0.06250971703491211, 0.17602429520874024, -0.005752427947998047, -1.7686798464111328, -0.07593204891357422, 0.9108010917663575, 0.04026699563598633, 0.47323307252197266, -0.3804272349609375, -0.12962137642822266, 3.041116908508301, -12.565987104803467]
velocity: [0.0, -0.019099858421087267, 0.00786464758515358, -0.009737182724475862, 0.003370563250780106, -0.0007490140557289124, -0.011609717863798143, 0.0, -0.003745070278644562, -0.004119577306509018, -0.005243098390102387, 0.02471746383905411, 0.014980281114578248, 0.0014980281114578247, -0.0011235210835933687, 0.001872535139322281, 0.0]
effort: [0.0, 0.0, -1.052, -17.508, -1.4, -8.696, 0.12, -2.512, 0.028, -0.5, -4.136, 0.9, 3.964, 0.1, -0.712, -0.224, -20.48]
---
header: 
  seq: 440104
  stamp: 
    secs: 1442601897
    nsecs: 936715385
  frame_id: ''
name: 
  - head_nod
  - head_pan
  - left_e0
  - left_e1
  - left_s0
  - left_s1
  - left_w0
  - left_w1
  - left_w2
  - right_e0
  - right_e1
  - right_s0
  - right_s1
  - right_w0
  - right_w1
  - right_w2
  - torso_t0
position: [0.0, -0.06250971703491211, -0.015723303057861328, -0.04793689956665039, 0.019941750219726564, 0.06250971703491211, 0.17564080001220705, -0.005368932751464844, -1.7686798464111328, -0.07593204891357422, 0.9108010917663575, 0.04065049083251954, 0.4724660821289063, -0.3804272349609375, -0.13000487162475588, 3.0418838989013675, -12.565987104803467]
velocity: [0.0, 0.012358731919527055, -0.001872535139322281, 0.005992112445831299, -0.021346900588274004, -0.0029960562229156495, 0.013482253003120424, 0.003745070278644562, -0.009737182724475862, -0.006741126501560212, 0.00786464758515358, 0.03969774495363236, 0.014231267058849336, -0.0022470421671867374, -0.005992112445831299, 0.004868591362237931, 0.0]
effort: [0.0, 0.0, -1.084, -17.508, -1.4, -8.696, 0.128, -2.512, 0.036, -0.564, -4.136, 0.776, 3.932, 0.072, -0.732, -0.204, -20.48]
---
header: 
  seq: 440105
  stamp: 
    secs: 1442601897
    nsecs: 946715728
  frame_id: ''
name: 
  - head_nod
  - head_pan
  - left_e0
  - left_e1
  - left_s0
  - left_s1
  - left_w0
  - left_w1
  - left_w2
  - right_e0
  - right_e1
  - right_s0
  - right_s1
  - right_w0
  - right_w1
  - right_w2
  - torso_t0
position: [0.0, -0.06327670742797852, -0.015339807861328126, -0.048320394763183595, 0.01955825502319336, 0.06250971703491211, 0.17602429520874024, -0.004985437554931641, -1.7690633416076662, -0.07554855371704101, 0.9115680821594239, 0.04180097642211914, 0.4740000629150391, -0.3804272349609375, -0.12962137642822266, 3.040733413311768, -12.565987104803467]
velocity: [0.0, 0.01872535139322281, -0.00898816866874695, -0.016478309226036072, -0.006741126501560212, -0.004494084334373475, -0.015354788142442705, 0.023593942755460742, -0.0014980281114578247, 0.012733238947391512, -0.009362675696611405, 0.017227323281764986, -0.003745070278644562, 0.006366619473695756, -0.01086070380806923, 0.0026215491950511934, 0.0]
effort: [0.0, 0.0, -1.052, -17.508, -1.244, -8.752, 0.136, -2.54, 0.016, -0.5, -4.136, 0.684, 3.9, 0.08, -0.692, -0.212, -20.48]
---
header: 
  seq: 440106
  stamp: 
    secs: 1442601897
    nsecs: 956715013
  frame_id: ''
name: 
  - head_nod
  - head_pan
  - left_e0
  - left_e1
  - left_s0
  - left_s1
  - left_w0
  - left_w1
  - left_w2
  - right_e0
  - right_e1
  - right_s0
  - right_s1
  - right_w0
  - right_w1
  - right_w2
  - torso_t0
position: [0.0, -0.06366020262451172, -0.015339807861328126, -0.048320394763183595, 0.019174759826660157, 0.06289321223144531, 0.17640779040527346, -0.005752427947998047, -1.7682963512145997, -0.07516505852050782, 0.9115680821594239, 0.03988350043945313, 0.47323307252197266, -0.3800437397644043, -0.12962137642822266, 3.041116908508301, -12.565987104803467]
velocity: [0.0, -0.004119577306509018, -0.0011235210835933687, 0.023968449783325196, 0.005992112445831299, -0.0029960562229156495, -0.006366619473695756, 0.0179763373374939, 0.007115633529424668, -0.001872535139322281, 0.009362675696611405, -0.018350844365358353, -0.013107745975255967, -0.0014980281114578247, 0.03145859034061432, 0.007490140557289124, 0.0]
effort: [0.0, 0.0, -0.988, -17.508, -1.556, -8.668, 0.144, -2.512, 0.016, -0.5, -4.104, 0.56, 3.996, 0.08, -0.732, -0.212, -20.48]
---
header: 
  seq: 440107
  stamp: 
    secs: 1442601897
    nsecs: 966674962
  frame_id: ''
name: 
  - head_nod
  - head_pan
  - left_e0
  - left_e1
  - left_s0
  - left_s1
  - left_w0
  - left_w1
  - left_w2
  - right_e0
  - right_e1
  - right_s0
  - right_s1
  - right_w0
  - right_w1
  - right_w2
  - torso_t0
position: [0.0, -0.06289321223144531, -0.015339807861328126, -0.04793689956665039, 0.01955825502319336, 0.06289321223144531, 0.17525730481567384, -0.00728640873413086, -1.7690633416076662, -0.07631554411010742, 0.9115680821594239, 0.041033986029052734, 0.4728495773254395, -0.38081073015747074, -0.12962137642822266, 3.041116908508301, -12.565987104803467]
velocity: [0.0, -0.013107745975255967, -0.0014980281114578247, -0.0014980281114578247, -0.006741126501560212, -0.006741126501560212, 0.001872535139322281, 0.0007490140557289124, 0.01086070380806923, 0.00786464758515358, 0.006366619473695756, -0.012358731919527055, -0.003370563250780106, 0.0003745070278644562, 0.007115633529424668, -0.015354788142442705, 0.0]
effort: [0.0, 0.0, -1.02, -17.568, -1.276, -8.696, 0.128, -2.528, 0.036, -0.532, -4.196, 0.652, 3.964, 0.08, -0.712, -0.232, -20.48]
---
header: 
  seq: 440108
  stamp: 
    secs: 1442601897
    nsecs: 976681782
  frame_id: ''
name: 
  - head_nod
  - head_pan
  - left_e0
  - left_e1
  - left_s0
  - left_s1
  - left_w0
  - left_w1
  - left_w2
  - right_e0
  - right_e1
  - right_s0
  - right_s1
  - right_w0
  - right_w1
  - right_w2
  - torso_t0
position: [0.0, -0.06327670742797852, -0.014956312664794923, -0.04793689956665039, 0.01955825502319336, 0.06289321223144531, 0.17640779040527346, -0.005368932751464844, -1.7686798464111328, -0.07516505852050782, 0.9108010917663575, 0.04180097642211914, 0.47323307252197266, -0.3804272349609375, -0.12962137642822266, 3.041116908508301, -12.565987104803467]
velocity: [0.0, -0.003745070278644562, -0.005617605417966843, -0.01872535139322281, -0.006366619473695756, -0.004494084334373475, 0.0029960562229156495, -0.023593942755460742, -0.013107745975255967, 0.004119577306509018, -0.0007490140557289124, 0.03745070278644562, 0.009737182724475862, 0.0003745070278644562, 0.0, -0.007115633529424668, 0.0]
effort: [0.0, 0.0, -0.988, -17.54, -1.212, -8.752, 0.136, -2.52, 0.044, -0.592, -4.104, 0.808, 3.932, 0.088, -0.72, -0.224, -20.48]
---
header: 
  seq: 440109
  stamp: 
    secs: 1442601897
    nsecs: 986714620
  frame_id: ''
name: 
  - head_nod
  - head_pan
  - left_e0
  - left_e1
  - left_s0
  - left_s1
  - left_w0
  - left_w1
  - left_w2
  - right_e0
  - right_e1
  - right_s0
  - right_s1
  - right_w0
  - right_w1
  - right_w2
  - torso_t0
position: [0.0, -0.06289321223144531, -0.015723303057861328, -0.04793689956665039, 0.019174759826660157, 0.06212622183837891, 0.17640779040527346, -0.004218447161865235, -1.7686798464111328, -0.07593204891357422, 0.9111845869628907, 0.04141748122558594, 0.47323307252197266, -0.3804272349609375, -0.13000487162475588, 3.041116908508301, -12.565987104803467]
velocity: [0.0, -0.0011235210835933687, 0.004494084334373475, 0.008613661640882493, -0.00786464758515358, -0.005243098390102387, -0.011984224891662598, 0.02471746383905411, -0.0011235210835933687, -0.0022470421671867374, -0.011609717863798143, -0.017601830309629442, 0.004119577306509018, 0.006741126501560212, 0.0007490140557289124, -0.011984224891662598, 0.0]
effort: [0.0, 0.0, -1.02, -17.508, -1.308, -8.696, 0.128, -2.52, 0.036, -0.532, -4.104, 0.684, 3.964, 0.08, -0.72, -0.224, -20.48]
---
header: 
  seq: 440110
  stamp: 
    secs: 1442601897
    nsecs: 996718091
  frame_id: ''
name: 
  - head_nod
  - head_pan
  - left_e0
  - left_e1
  - left_s0
  - left_s1
  - left_w0
  - left_w1
  - left_w2
  - right_e0
  - right_e1
  - right_s0
  - right_s1
  - right_w0
  - right_w1
  - right_w2
  - torso_t0
position: [0.0, -0.06327670742797852, -0.015339807861328126, -0.0487038899597168, 0.02032524541625977, 0.06250971703491211, 0.17640779040527346, -0.005368932751464844, -1.7686798464111328, -0.07516505852050782, 0.9115680821594239, 0.04141748122558594, 0.47323307252197266, -0.3804272349609375, -0.13038836682128907, 3.040733413311768, -12.565987104803467]
velocity: [0.0, 0.005992112445831299, 0.007115633529424668, 0.0, 0.013107745975255967, 0.020972393560409548, -0.007115633529424668, 0.017227323281764986, -0.004494084334373475, -0.004494084334373475, -0.017227323281764986, -0.003745070278644562, 0.0029960562229156495, -0.014605774086713793, -0.006366619473695756, 0.01572929517030716, 0.0]
effort: [0.0, 0.0, -1.052, -17.54, -1.368, -8.724, 0.128, -2.54, 0.016, -0.532, -4.136, 0.716, 3.932, 0.1, -0.684, -0.224, -20.48]
---
header: 
  seq: 440111
  stamp: 
    secs: 1442601898
    nsecs:   6715505
  frame_id: ''
name: 
  - head_nod
  - head_pan
  - left_e0
  - left_e1
  - left_s0
  - left_s1
  - left_w0
  - left_w1
  - left_w2
  - right_e0
  - right_e1
  - right_s0
  - right_s1
  - right_w0
  - right_w1
  - right_w2
  - torso_t0
position: [0.0, -0.06327670742797852, -0.015723303057861328, -0.04755340437011719, 0.018407769433593752, 0.06250971703491211, 0.17525730481567384, -0.005368932751464844, -1.7686798464111328, -0.07516505852050782, 0.9115680821594239, 0.04141748122558594, 0.47323307252197266, -0.3804272349609375, -0.12923788123168947, 3.040733413311768, -12.565987104803467]
velocity: [0.0, 0.006366619473695756, -0.0014980281114578247, 0.005617605417966843, 0.004494084334373475, 0.0007490140557289124, -0.016478309226036072, -0.026215491950511934, 0.014980281114578248, 0.010111689752340317, 0.007490140557289124, 0.0014980281114578247, 0.0011235210835933687, -0.0011235210835933687, -0.019099858421087267, 0.0022470421671867374, 0.0]
effort: [0.0, 0.0, -1.148, -17.568, -1.244, -8.724, 0.136, -2.52, 0.016, -0.564, -4.136, 0.684, 3.932, 0.072, -0.712, -0.212, -20.48]
---
header: 
  seq: 440112
  stamp: 
    secs: 1442601898
    nsecs:  16713339
  frame_id: ''
name: 
  - head_nod
  - head_pan
  - left_e0
  - left_e1
  - left_s0
  - left_s1
  - left_w0
  - left_w1
  - left_w2
  - right_e0
  - right_e1
  - right_s0
  - right_s1
  - right_w0
  - right_w1
  - right_w2
  - torso_t0
position: [0.0, -0.06366020262451172, -0.015339807861328126, -0.04793689956665039, 0.019174759826660157, 0.06250971703491211, 0.17640779040527346, -0.006902913537597657, -1.7682963512145997, -0.07669903930664063, 0.9115680821594239, 0.03988350043945313, 0.47323307252197266, -0.38081073015747074, -0.12962137642822266, 3.0403499181152345, -12.565987104803467]
velocity: [0.0, 0.005992112445831299, 0.0022470421671867374, 0.019474365448951723, -0.012358731919527055, 0.004868591362237931, -0.026215491950511934, 0.0011235210835933687, 0.001872535139322281, -0.0003745070278644562, -0.01610380219817162, 0.003370563250780106, -0.005243098390102387, 0.007490140557289124, -0.003745070278644562, -0.0014980281114578247, 0.0]
effort: [0.0, 0.0, -1.052, -17.54, -1.34, -8.668, 0.136, -2.54, 0.036, -0.592, -4.104, 0.652, 3.964, 0.088, -0.72, -0.232, -20.48]
---
header: 
  seq: 440113
  stamp: 
    secs: 1442601898
    nsecs:  26714215
  frame_id: ''
name: 
  - head_nod
  - head_pan
  - left_e0
  - left_e1
  - left_s0
  - left_s1
  - left_w0
  - left_w1
  - left_w2
  - right_e0
  - right_e1
  - right_s0
  - right_s1
  - right_w0
  - right_w1
  - right_w2
  - torso_t0
position: [0.0, -0.06327670742797852, -0.015723303057861328, -0.048320394763183595, 0.018791264630126956, 0.06212622183837891, 0.17487380961914065, -0.00613592314453125, -1.7686798464111328, -0.07516505852050782, 0.9108010917663575, 0.041033986029052734, 0.4728495773254395, -0.3804272349609375, -0.13000487162475588, 3.041500403704834, -12.565987104803467]
velocity: [0.0, -0.0014980281114578247, -0.00898816866874695, -0.0007490140557289124, -0.0026215491950511934, -0.006741126501560212, -0.018350844365358353, -0.006366619473695756, 0.003745070278644562, -0.019099858421087267, 0.003370563250780106, -0.0029960562229156495, 0.005617605417966843, 0.0003745070278644562, 0.03183309736847878, -0.015354788142442705, 0.0]
effort: [0.0, 0.0, -1.052, -17.54, -1.184, -8.612, 0.144, -2.56, 0.016, -0.564, -4.072, 0.684, 3.932, 0.088, -0.748, -0.204, -20.48]
---
header: 
  seq: 440114
  stamp: 
    secs: 1442601898
    nsecs:  36715185
  frame_id: ''
name: 
  - head_nod
  - head_pan
  - left_e0
  - left_e1
  - left_s0
  - left_s1
  - left_w0
  - left_w1
  - left_w2
  - right_e0
  - right_e1
  - right_s0
  - right_s1
  - right_w0
  - right_w1
  - right_w2
  - torso_t0
position: [0.0, -0.06327670742797852, -0.015723303057861328, -0.04793689956665039, 0.01955825502319336, 0.06289321223144531, 0.17525730481567384, -0.005368932751464844, -1.7690633416076662, -0.07554855371704101, 0.9115680821594239, 0.03988350043945313, 0.4736165677185059, -0.3804272349609375, -0.12923788123168947, 3.0418838989013675, -12.565987104803467]
velocity: [0.0, -0.01984887247681618, -0.0011235210835933687, -0.014980281114578248, -0.001872535139322281, -0.003745070278644562, 0.027713520061969758, 0.011984224891662598, -0.022095914644002915, -0.0011235210835933687, 0.013856760030984879, 0.01872535139322281, 0.006741126501560212, -0.009362675696611405, -0.02471746383905411, 0.004494084334373475, 0.0]
effort: [0.0, 0.0, -1.116, -17.54, -1.34, -8.552, 0.128, -2.528, 0.016, -0.5, -4.104, 0.716, 3.9, 0.08, -0.732, -0.224, -20.48]
---
header: 
  seq: 440115
  stamp: 
    secs: 1442601898
    nsecs:  46716753
  frame_id: ''
name: 
  - head_nod
  - head_pan
  - left_e0
  - left_e1
  - left_s0
  - left_s1
  - left_w0
  - left_w1
  - left_w2
  - right_e0
  - right_e1
  - right_s0
  - right_s1
  - right_w0
  - right_w1
  - right_w2
  - torso_t0
position: [0.0, -0.06250971703491211, -0.014956312664794923, -0.048320394763183595, 0.019174759826660157, 0.06327670742797852, 0.17602429520874024, -0.005752427947998047, -1.7675293608215332, -0.07593204891357422, 0.9108010917663575, 0.041033986029052734, 0.47323307252197266, -0.3804272349609375, -0.13000487162475588, 3.041116908508301, -12.565987104803467]
velocity: [0.0, -0.0022470421671867374, -0.004868591362237931, -0.01610380219817162, 0.0022470421671867374, 0.02846253411769867, 0.037825209814310076, -0.004494084334373475, 0.0029960562229156495, 0.012358731919527055, 0.01984887247681618, -0.012733238947391512, 0.004119577306509018, 0.012733238947391512, -0.0022470421671867374, 0.013107745975255967, 0.0]
effort: [0.0, 0.0, -1.052, -17.568, -1.276, -8.552, 0.144, -2.548, 0.028, -0.468, -4.196, 0.748, 3.996, 0.08, -0.74, -0.232, -20.48]
---
header: 
  seq: 440116
  stamp: 
    secs: 1442601898
    nsecs:  56714468
  frame_id: ''
name: 
  - head_nod
  - head_pan
  - left_e0
  - left_e1
  - left_s0
  - left_s1
  - left_w0
  - left_w1
  - left_w2
  - right_e0
  - right_e1
  - right_s0
  - right_s1
  - right_w0
  - right_w1
  - right_w2
  - torso_t0
position: [0.0, -0.06289321223144531, -0.015339807861328126, -0.0487038899597168, 0.019174759826660157, 0.06212622183837891, 0.17679128560180665, -0.005752427947998047, -1.7690633416076662, -0.07593204891357422, 0.9115680821594239, 0.04180097642211914, 0.4736165677185059, -0.38081073015747074, -0.12847089083862306, 3.041500403704834, -12.565987104803467]
velocity: [0.0, 0.013856760030984879, 0.004868591362237931, 0.004868591362237931, 0.01872535139322281, 0.006366619473695756, 0.014231267058849336, -0.013107745975255967, 0.0029960562229156495, 0.0029960562229156495, -0.005243098390102387, 0.016478309226036072, -0.018350844365358353, 0.003370563250780106, 0.0022470421671867374, 0.0029960562229156495, 0.0]
effort: [0.0, 0.0, -1.084, -17.54, -1.184, -8.612, 0.144, -2.512, 0.008, -0.624, -4.104, 0.748, 3.932, 0.08, -0.74, -0.224, -20.48]
---
header: 
  seq: 440117
  stamp: 
    secs: 1442601898
    nsecs:  66720795
  frame_id: ''
name: 
  - head_nod
  - head_pan
  - left_e0
  - left_e1
  - left_s0
  - left_s1
  - left_w0
  - left_w1
  - left_w2
  - right_e0
  - right_e1
  - right_s0
  - right_s1
  - right_w0
  - right_w1
  - right_w2
  - torso_t0
position: [0.0, -0.06289321223144531, -0.014956312664794923, -0.04755340437011719, 0.01955825502319336, 0.06212622183837891, 0.17602429520874024, -0.004985437554931641, -1.7679128560180666, -0.07554855371704101, 0.9115680821594239, 0.04141748122558594, 0.4728495773254395, -0.3804272349609375, -0.12962137642822266, 3.040733413311768, -12.565987104803467]
velocity: [0.0, 0.01984887247681618, -0.001872535139322281, 0.00786464758515358, 0.006741126501560212, -0.020972393560409548, -0.010486196780204774, 0.0003745070278644562, -0.011984224891662598, 0.001872535139322281, -0.00786464758515358, -0.07490140557289124, -0.007115633529424668, 0.0003745070278644562, 0.016478309226036072, -0.004119577306509018, 0.0]
effort: [0.0, 0.0, -1.084, -17.508, -1.368, -8.58, 0.144, -2.52, 0.036, -0.592, -4.136, 0.776, 3.932, 0.072, -0.748, -0.232, -20.48]
---
header: 
  seq: 440118
  stamp: 
    secs: 1442601898
    nsecs:  76714343
  frame_id: ''
name: 
  - head_nod
  - head_pan
  - left_e0
  - left_e1
  - left_s0
  - left_s1
  - left_w0
  - left_w1
  - left_w2
  - right_e0
  - right_e1
  - right_s0
  - right_s1
  - right_w0
  - right_w1
  - right_w2
  - torso_t0
position: [0.0, -0.06289321223144531, -0.014956312664794923, -0.04793689956665039, 0.01955825502319336, 0.06212622183837891, 0.17602429520874024, -0.005368932751464844, -1.7675293608215332, -0.07516505852050782, 0.9123350725524902, 0.041033986029052734, 0.4736165677185059, -0.38081073015747074, -0.12808739564208985, 3.041500403704834, -12.565987104803467]
velocity: [0.0, -0.00898816866874695, 0.0014980281114578247, 0.003370563250780106, -0.001872535139322281, -0.019474365448951723, 0.006741126501560212, 0.012358731919527055, 0.005243098390102387, 0.001872535139322281, -0.005992112445831299, 0.00898816866874695, 0.0026215491950511934, -0.012358731919527055, -0.009737182724475862, -0.008239154613018036, 0.0]
effort: [0.0, 0.0, -1.084, -17.54, -1.212, -8.468, 0.136, -2.56, 0.016, -0.5, -4.136, 0.776, 3.964, 0.072, -0.72, -0.224, -20.48]
---
header: 
  seq: 440119
  stamp: 
    secs: 1442601898
    nsecs:  86717193
  frame_id: ''
name: 
  - head_nod
  - head_pan
  - left_e0
  - left_e1
  - left_s0
  - left_s1
  - left_w0
  - left_w1
  - left_w2
  - right_e0
  - right_e1
  - right_s0
  - right_s1
  - right_w0
  - right_w1
  - right_w2
  - torso_t0
position: [0.0, -0.06404369782104492, -0.016106798254394532, -0.04716990917358399, 0.01955825502319336, 0.06289321223144531, 0.17564080001220705, -0.004985437554931641, -1.7679128560180666, -0.07554855371704101, 0.9108010917663575, 0.041033986029052734, 0.4736165677185059, -0.38081073015747074, -0.13000487162475588, 3.042267394097901, -12.565987104803467]
velocity: [0.0, -0.01984887247681618, 0.0026215491950511934, 0.001872535139322281, -0.012733238947391512, 0.009362675696611405, -0.0011235210835933687, 0.0022470421671867374, 0.017601830309629442, -0.011984224891662598, -0.0026215491950511934, 0.03370563250780106, 0.01872535139322281, -0.01610380219817162, -0.0011235210835933687, 0.005243098390102387, 0.0]
effort: [0.0, 0.0, -1.084, -17.54, -1.4, -8.356, 0.144, -2.54, 0.028, -0.624, -4.136, 0.776, 3.932, 0.08, -0.732, -0.24, -20.48]
---
header: 
  seq: 440120
  stamp: 
    secs: 1442601898
    nsecs:  96715009
  frame_id: ''
name: 
  - head_nod
  - head_pan
  - left_e0
  - left_e1
  - left_s0
  - left_s1
  - left_w0
  - left_w1
  - left_w2
  - right_e0
  - right_e1
  - right_s0
  - right_s1
  - right_w0
  - right_w1
  - right_w2
  - torso_t0
position: [0.0, -0.06327670742797852, -0.015723303057861328, -0.04793689956665039, 0.018791264630126956, 0.06250971703491211, 0.17640779040527346, -0.004985437554931641, -1.7686798464111328, -0.07593204891357422, 0.9119515773559571, 0.042184471618652346, 0.47323307252197266, -0.38081073015747074, -0.12847089083862306, 3.040733413311768, -12.565987104803467]
velocity: [0.0, -0.010111689752340317, -0.013482253003120424, 0.006366619473695756, -0.011235210835933686, 0.003370563250780106, 0.005992112445831299, 0.017227323281764986, -0.004494084334373475, -0.006366619473695756, -0.020972393560409548, 0.025840984922647477, 0.0029960562229156495, 0.005992112445831299, -0.01872535139322281, -0.004868591362237931, 0.0]
effort: [0.0, 0.0, -1.116, -17.48, -1.34, -8.3, 0.128, -2.548, 0.016, -0.5, -4.104, 0.684, 3.872, 0.088, -0.712, -0.224, -20.48]
---
header: 
  seq: 440121
  stamp: 
    secs: 1442601898
    nsecs: 106712486
  frame_id: ''
name: 
  - head_nod
  - head_pan
  - left_e0
  - left_e1
  - left_s0
  - left_s1
  - left_w0
  - left_w1
  - left_w2
  - right_e0
  - right_e1
  - right_s0
  - right_s1
  - right_w0
  - right_w1
  - right_w2
  - torso_t0
position: [0.0, -0.06327670742797852, -0.015339807861328126, -0.04716990917358399, 0.019174759826660157, 0.06289321223144531, 0.17564080001220705, -0.00613592314453125, -1.7682963512145997, -0.07554855371704101, 0.9115680821594239, 0.03988350043945313, 0.4736165677185059, -0.38081073015747074, -0.12885438603515625, 3.040733413311768, -12.565987104803467]
velocity: [0.0, 0.004119577306509018, 0.00786464758515358, -0.008613661640882493, -0.0007490140557289124, 0.020223379504680634, 0.01572929517030716, -0.025091970866918566, -0.008613661640882493, -0.004119577306509018, 0.01086070380806923, -0.01984887247681618, 0.0, -0.005992112445831299, -0.0007490140557289124, -0.0022470421671867374, 0.0]
effort: [0.0, 0.0, -1.084, -17.508, -1.308, -8.328, 0.136, -2.512, 0.008, -0.532, -4.136, 0.62, 3.932, 0.072, -0.732, -0.204, -20.48]
---
header: 
  seq: 440122
  stamp: 
    secs: 1442601898
    nsecs: 116718789
  frame_id: ''
name: 
  - head_nod
  - head_pan
  - left_e0
  - left_e1
  - left_s0
  - left_s1
  - left_w0
  - left_w1
  - left_w2
  - right_e0
  - right_e1
  - right_s0
  - right_s1
  - right_w0
  - right_w1
  - right_w2
  - torso_t0
position: [0.0, -0.06366020262451172, -0.015723303057861328, -0.04755340437011719, 0.019174759826660157, 0.06327670742797852, 0.17640779040527346, -0.00613592314453125, -1.7686798464111328, -0.07516505852050782, 0.9119515773559571, 0.04141748122558594, 0.4736165677185059, -0.3804272349609375, -0.13000487162475588, 3.040733413311768, -12.565987104803467]
velocity: [0.0, 0.0022470421671867374, 0.01610380219817162, -0.014231267058849336, 0.005243098390102387, 0.005617605417966843, 0.0014980281114578247, -0.029960562229156495, -0.005992112445831299, 0.021346900588274004, 0.003370563250780106, -0.025091970866918566, -0.003745070278644562, 0.0003745070278644562, -0.003370563250780106, -0.003745070278644562, 0.0]
effort: [0.0, 0.0, -1.02, -17.54, -1.308, -8.328, 0.136, -2.5, 0.028, -0.592, -4.136, 0.652, 3.964, 0.08, -0.74, -0.204, -20.48]
---
header: 
  seq: 440123
  stamp: 
    secs: 1442601898
    nsecs: 126676714
  frame_id: ''
name: 
  - head_nod
  - head_pan
  - left_e0
  - left_e1
  - left_s0
  - left_s1
  - left_w0
  - left_w1
  - left_w2
  - right_e0
  - right_e1
  - right_s0
  - right_s1
  - right_w0
  - right_w1
  - right_w2
  - torso_t0
position: [0.0, -0.06327670742797852, -0.015339807861328126, -0.04793689956665039, 0.019174759826660157, 0.06289321223144531, 0.17640779040527346, -0.005368932751464844, -1.7682963512145997, -0.07593204891357422, 0.9111845869628907, 0.041033986029052734, 0.47323307252197266, -0.38081073015747074, -0.12847089083862306, 3.040733413311768, -12.565987104803467]
velocity: [0.0, -0.014231267058849336, 0.00786464758515358, -0.009737182724475862, -0.001872535139322281, 0.0022470421671867374, -0.017601830309629442, -0.009737182724475862, 0.005243098390102387, 0.005992112445831299, -0.005243098390102387, 0.01610380219817162, 0.0014980281114578247, -0.00786464758515358, -0.009362675696611405, -0.010111689752340317, 0.0]
effort: [0.0, 0.0, -0.988, -17.48, -1.308, -8.328, 0.128, -2.512, 0.016, -0.592, -4.104, 0.932, 3.932, 0.088, -0.732, -0.212, -20.48]
---
header: 
  seq: 440124
  stamp: 
    secs: 1442601898
    nsecs: 136714352
  frame_id: ''
name: 
  - head_nod
  - head_pan
  - left_e0
  - left_e1
  - left_s0
  - left_s1
  - left_w0
  - left_w1
  - left_w2
  - right_e0
  - right_e1
  - right_s0
  - right_s1
  - right_w0
  - right_w1
  - right_w2
  - torso_t0
position: [0.0, -0.06327670742797852, -0.014956312664794923, -0.04755340437011719, 0.01955825502319336, 0.06327670742797852, 0.17564080001220705, -0.005752427947998047, -1.7682963512145997, -0.07593204891357422, 0.9108010917663575, 0.04065049083251954, 0.4736165677185059, -0.38119422535400393, -0.13038836682128907, 3.041500403704834, -12.565987104803467]
velocity: [0.0, 0.0014980281114578247, 0.00786464758515358, 0.005617605417966843, 0.005243098390102387, -0.003370563250780106, -0.010486196780204774, 0.010111689752340317, -0.011609717863798143, -0.0022470421671867374, 0.0029960562229156495, 0.024342956811189653, -0.0029960562229156495, -0.02471746383905411, -0.012358731919527055, 0.0011235210835933687, 0.0]
effort: [0.0, 0.0, -1.116, -17.508, -1.308, -8.328, 0.144, -2.5, 0.008, -0.592, -4.136, 0.84, 3.932, 0.08, -0.74, -0.204, -20.48]
---
header: 
  seq: 440125
  stamp: 
    secs: 1442601898
    nsecs: 146716038
  frame_id: ''
name: 
  - head_nod
  - head_pan
  - left_e0
  - left_e1
  - left_s0
  - left_s1
  - left_w0
  - left_w1
  - left_w2
  - right_e0
  - right_e1
  - right_s0
  - right_s1
  - right_w0
  - right_w1
  - right_w2
  - torso_t0
position: [0.0, -0.06289321223144531, -0.015723303057861328, -0.04793689956665039, 0.019941750219726564, 0.06327670742797852, 0.17602429520874024, -0.005368932751464844, -1.7682963512145997, -0.07516505852050782, 0.9115680821594239, 0.04141748122558594, 0.4728495773254395, -0.3804272349609375, -0.13000487162475588, 3.0418838989013675, -12.565987104803467]
velocity: [0.0, 0.006366619473695756, -0.004494084334373475, 0.00786464758515358, 0.0003745070278644562, 0.0003745070278644562, -0.00786464758515358, 0.01086070380806923, 0.006366619473695756, -0.014605774086713793, -0.004119577306509018, -0.007490140557289124, -0.01572929517030716, 0.016478309226036072, -0.006741126501560212, 0.003370563250780106, 0.0]
effort: [0.0, 0.0, -1.084, -17.54, -1.368, -8.356, 0.128, -2.528, 0.028, -0.532, -4.104, 0.592, 3.996, 0.1, -0.74, -0.224, -20.48]
---
header: 
  seq: 440126
  stamp: 
    secs: 1442601898
    nsecs: 156731340
  frame_id: ''
name: 
  - head_nod
  - head_pan
  - left_e0
  - left_e1
  - left_s0
  - left_s1
  - left_w0
  - left_w1
  - left_w2
  - right_e0
  - right_e1
  - right_s0
  - right_s1
  - right_w0
  - right_w1
  - right_w2
  - torso_t0
position: [0.0, -0.06289321223144531, -0.015339807861328126, -0.0487038899597168, 0.01955825502319336, 0.06250971703491211, 0.17602429520874024, -0.005752427947998047, -1.7675293608215332, -0.07593204891357422, 0.9111845869628907, 0.041033986029052734, 0.4728495773254395, -0.38081073015747074, -0.13000487162475588, 3.0399664229187016, -12.565987104803467]
velocity: [0.0, 0.014605774086713793, -0.009737182724475862, 0.003370563250780106, 0.015354788142442705, 0.006366619473695756, 0.01872535139322281, 0.0333311254799366, -0.008613661640882493, 0.017227323281764986, 0.003745070278644562, -0.01984887247681618, -0.009737182724475862, 0.017601830309629442, 0.005992112445831299, 0.011609717863798143, 0.0]
effort: [0.0, 0.0, -1.18, -17.54, -1.276, -8.328, 0.12, -2.54, 0.028, -0.5, -4.072, 0.56, 3.964, 0.088, -0.72, -0.204, -20.48]
---
header: 
  seq: 440127
  stamp: 
    secs: 1442601898
    nsecs: 166705692
  frame_id: ''
name: 
  - head_nod
  - head_pan
  - left_e0
  - left_e1
  - left_s0
  - left_s1
  - left_w0
  - left_w1
  - left_w2
  - right_e0
  - right_e1
  - right_s0
  - right_s1
  - right_w0
  - right_w1
  - right_w2
  - torso_t0
position: [0.0, -0.06366020262451172, -0.014956312664794923, -0.04793689956665039, 0.019174759826660157, 0.06289321223144531, 0.17640779040527346, -0.005752427947998047, -1.7679128560180666, -0.07631554411010742, 0.9108010917663575, 0.04065049083251954, 0.4740000629150391, -0.38081073015747074, -0.13000487162475588, 3.041116908508301, -12.565987104803467]
velocity: [0.0, -0.005243098390102387, 0.004868591362237931, 0.0, 0.003745070278644562, -0.016478309226036072, -0.0014980281114578247, 0.0003745070278644562, 0.006366619473695756, -0.005617605417966843, 0.003370563250780106, -0.013856760030984879, 0.009362675696611405, 0.005243098390102387, 0.0029960562229156495, -0.003745070278644562, 0.0]
effort: [0.0, 0.0, -0.988, -17.568, -1.308, -8.384, 0.128, -2.548, 0.028, -0.436, -4.196, 0.776, 3.932, 0.088, -0.72, -0.204, -20.48]
---
header: 
  seq: 440128
  stamp: 
    secs: 1442601898
    nsecs: 176715407
  frame_id: ''
name: 
  - head_nod
  - head_pan
  - left_e0
  - left_e1
  - left_s0
  - left_s1
  - left_w0
  - left_w1
  - left_w2
  - right_e0
  - right_e1
  - right_s0
  - right_s1
  - right_w0
  - right_w1
  - right_w2
  - torso_t0
position: [0.0, -0.06366020262451172, -0.015723303057861328, -0.04793689956665039, 0.01955825502319336, 0.06289321223144531, 0.17640779040527346, -0.005752427947998047, -1.7679128560180666, -0.07593204891357422, 0.9115680821594239, 0.04180097642211914, 0.47323307252197266, -0.38081073015747074, -0.12962137642822266, 3.041500403704834, -12.565987104803467]
velocity: [0.0, -0.012733238947391512, -0.0003745070278644562, 0.010111689752340317, -0.028088027089834215, 0.005992112445831299, 0.00786464758515358, -0.01572929517030716, 0.003370563250780106, -0.011984224891662598, -0.019474365448951723, 0.013856760030984879, 0.0029960562229156495, 0.004494084334373475, -0.004494084334373475, 0.005992112445831299, 0.0]
effort: [0.0, 0.0, -0.956, -17.568, -1.4, -8.328, 0.128, -2.568, 0.028, -0.564, -4.136, 0.776, 3.932, 0.064, -0.712, -0.224, -20.48]
---
header: 
  seq: 440129
  stamp: 
    secs: 1442601898
    nsecs: 186729344
  frame_id: ''
name: 
  - head_nod
  - head_pan
  - left_e0
  - left_e1
  - left_s0
  - left_s1
  - left_w0
  - left_w1
  - left_w2
  - right_e0
  - right_e1
  - right_s0
  - right_s1
  - right_w0
  - right_w1
  - right_w2
  - torso_t0
position: [0.0, -0.06327670742797852, -0.01457281746826172, -0.04793689956665039, 0.019174759826660157, 0.06250971703491211, 0.17640779040527346, -0.005752427947998047, -1.767145865625, -0.07669903930664063, 0.9104175965698242, 0.041033986029052734, 0.4736165677185059, -0.38081073015747074, -0.12962137642822266, 3.041500403704834, -12.565987104803467]
velocity: [0.0, 0.0, -0.007115633529424668, -0.010486196780204774, 0.012358731919527055, 0.006366619473695756, -0.005243098390102387, -0.0029960562229156495, -0.0029960562229156495, 0.008239154613018036, -0.006741126501560212, -0.024342956811189653, 0.0, 0.0007490140557289124, 0.009362675696611405, -0.011609717863798143, 0.0]
effort: [0.0, 0.0, -1.084, -17.54, -1.212, -8.384, 0.128, -2.56, 0.028, -0.532, -4.072, 0.748, 3.932, 0.072, -0.732, -0.224, -20.48]
---
header: 
  seq: 440130
  stamp: 
    secs: 1442601898
    nsecs: 196682965
  frame_id: ''
name: 
  - head_nod
  - head_pan
  - left_e0
  - left_e1
  - left_s0
  - left_s1
  - left_w0
  - left_w1
  - left_w2
  - right_e0
  - right_e1
  - right_s0
  - right_s1
  - right_w0
  - right_w1
  - right_w2
  - torso_t0
position: [0.0, -0.06404369782104492, -0.015339807861328126, -0.048320394763183595, 0.018791264630126956, 0.06250971703491211, 0.17564080001220705, -0.005368932751464844, -1.7682963512145997, -0.07631554411010742, 0.9119515773559571, 0.04141748122558594, 0.47323307252197266, -0.38081073015747074, -0.12885438603515625, 3.040733413311768, -12.565987104803467]
velocity: [0.0, 0.0026215491950511934, 0.0029960562229156495, -0.01572929517030716, 0.008239154613018036, -0.013482253003120424, 0.0029960562229156495, 0.023593942755460742, 0.01572929517030716, -0.012358731919527055, -0.00898816866874695, 0.029211548173427585, -0.006741126501560212, -0.005243098390102387, -0.013482253003120424, -0.008239154613018036, 0.0]
effort: [0.0, 0.0, -1.148, -17.54, -1.368, -8.328, 0.144, -2.528, 0.008, -0.532, -4.104, 0.716, 3.964, 0.088, -0.692, -0.232, -20.48]
---
header: 
  seq: 440131
  stamp: 
    secs: 1442601898
    nsecs: 206717691
  frame_id: ''
name: 
  - head_nod
  - head_pan
  - left_e0
  - left_e1
  - left_s0
  - left_s1
  - left_w0
  - left_w1
  - left_w2
  - right_e0
  - right_e1
  - right_s0
  - right_s1
  - right_w0
  - right_w1
  - right_w2
  - torso_t0
position: [0.0, -0.06327670742797852, -0.015339807861328126, -0.04793689956665039, 0.019174759826660157, 0.06289321223144531, 0.17640779040527346, -0.004985437554931641, -1.7682963512145997, -0.07631554411010742, 0.9108010917663575, 0.04065049083251954, 0.47323307252197266, -0.38081073015747074, -0.13000487162475588, 3.041116908508301, -12.565987104803467]
velocity: [0.0, 0.008239154613018036, 0.007490140557289124, 0.005243098390102387, -0.005617605417966843, 0.013107745975255967, 0.008613661640882493, -0.0179763373374939, -0.004119577306509018, -0.023593942755460742, 0.010111689752340317, 0.0014980281114578247, -0.0026215491950511934, 0.0029960562229156495, -0.0003745070278644562, 0.015354788142442705, 0.0]
effort: [0.0, 0.0, -0.988, -17.54, -1.34, -8.384, 0.136, -2.52, 0.016, -0.468, -4.164, 0.684, 3.932, 0.088, -0.748, -0.212, -20.48]
---
header: 
  seq: 440132
  stamp: 
    secs: 1442601898
    nsecs: 216715167
  frame_id: ''
name: 
  - head_nod
  - head_pan
  - left_e0
  - left_e1
  - left_s0
  - left_s1
  - left_w0
  - left_w1
  - left_w2
  - right_e0
  - right_e1
  - right_s0
  - right_s1
  - right_w0
  - right_w1
  - right_w2
  - torso_t0
position: [0.0, -0.06327670742797852, -0.015339807861328126, -0.0487038899597168, 0.019941750219726564, 0.06327670742797852, 0.17602429520874024, -0.004985437554931641, -1.7686798464111328, -0.07554855371704101, 0.9108010917663575, 0.04065049083251954, 0.47323307252197266, -0.38081073015747074, -0.12962137642822266, 3.041116908508301, -12.565987104803467]
velocity: [0.0, -0.004119577306509018, 0.004494084334373475, -0.012358731919527055, 0.006741126501560212, 0.004868591362237931, 0.0011235210835933687, -0.003370563250780106, -0.015354788142442705, 0.00898816866874695, -0.010111689752340317, -0.008613661640882493, 0.010486196780204774, 0.0003745070278644562, -0.005617605417966843, 0.0014980281114578247, 0.0]
effort: [0.0, 0.0, -1.02, -17.54, -1.212, -8.384, 0.144, -2.52, 0.028, -0.5, -4.136, 0.716, 3.964, 0.08, -0.732, -0.212, -20.48]
---
header: 
  seq: 440133
  stamp: 
    secs: 1442601898
    nsecs: 226718068
  frame_id: ''
name: 
  - head_nod
  - head_pan
  - left_e0
  - left_e1
  - left_s0
  - left_s1
  - left_w0
  - left_w1
  - left_w2
  - right_e0
  - right_e1
  - right_s0
  - right_s1
  - right_w0
  - right_w1
  - right_w2
  - torso_t0
position: [0.0, -0.06327670742797852, -0.015339807861328126, -0.04793689956665039, 0.019174759826660157, 0.06327670742797852, 0.17640779040527346, -0.004985437554931641, -1.7682963512145997, -0.07593204891357422, 0.9115680821594239, 0.04141748122558594, 0.4728495773254395, -0.3804272349609375, -0.12962137642822266, 3.041500403704834, -12.565987104803467]
velocity: [0.0, 0.006741126501560212, -0.011235210835933686, 0.00786464758515358, 0.0, 0.0029960562229156495, 0.008613661640882493, 0.012733238947391512, 0.004494084334373475, 0.0359526746749878, 0.007115633529424668, -0.0029960562229156495, 0.01086070380806923, 0.00898816866874695, 0.006366619473695756, 0.005617605417966843, 0.0]
effort: [0.0, 0.0, -0.988, -17.568, -1.308, -8.412, 0.128, -2.52, 0.028, -0.5, -4.104, 0.776, 3.872, 0.072, -0.748, -0.204, -20.48]
---
header: 
  seq: 440134
  stamp: 
    secs: 1442601898
    nsecs: 236715760
  frame_id: ''
name: 
  - head_nod
  - head_pan
  - left_e0
  - left_e1
  - left_s0
  - left_s1
  - left_w0
  - left_w1
  - left_w2
  - right_e0
  - right_e1
  - right_s0
  - right_s1
  - right_w0
  - right_w1
  - right_w2
  - torso_t0
position: [0.0, -0.06289321223144531, -0.015339807861328126, -0.0487038899597168, 0.019941750219726564, 0.06289321223144531, 0.17564080001220705, -0.005368932751464844, -1.7686798464111328, -0.07554855371704101, 0.9111845869628907, 0.04141748122558594, 0.4736165677185059, -0.3800437397644043, -0.13000487162475588, 3.040733413311768, -12.565987104803467]
velocity: [0.0, 0.013856760030984879, -0.013107745975255967, 0.008613661640882493, -0.0014980281114578247, -0.014231267058849336, 0.006741126501560212, 0.026964506006240847, 0.004119577306509018, 0.008613661640882493, 0.01086070380806923, 0.001872535139322281, -0.004494084334373475, 0.003745070278644562, -0.0029960562229156495, -0.0029960562229156495, 0.0]
effort: [0.0, 0.0, -0.956, -17.568, -1.34, -8.384, 0.128, -2.528, 0.016, -0.564, -4.136, 0.716, 3.932, 0.08, -0.732, -0.232, -20.48]
---
header: 
  seq: 440135
  stamp: 
    secs: 1442601898
    nsecs: 246711356
  frame_id: ''
name: 
  - head_nod
  - head_pan
  - left_e0
  - left_e1
  - left_s0
  - left_s1
  - left_w0
  - left_w1
  - left_w2
  - right_e0
  - right_e1
  - right_s0
  - right_s1
  - right_w0
  - right_w1
  - right_w2
  - torso_t0
position: [0.0, -0.06366020262451172, -0.015723303057861328, -0.048320394763183595, 0.019174759826660157, 0.06250971703491211, 0.17564080001220705, -0.004985437554931641, -1.7682963512145997, -0.07554855371704101, 0.9108010917663575, 0.03988350043945313, 0.4728495773254395, -0.3804272349609375, -0.12962137642822266, 3.040733413311768, -12.565987104803467]
velocity: [0.0, 0.0022470421671867374, -0.0029960562229156495, -0.012358731919527055, 0.003370563250780106, -0.009362675696611405, -0.014980281114578248, -0.015354788142442705, -0.0011235210835933687, 0.0011235210835933687, -0.013482253003120424, 0.017601830309629442, -0.001872535139322281, 0.0026215491950511934, 0.02059788653254509, 0.005992112445831299, 0.0]
effort: [0.0, 0.0, -0.988, -17.568, -1.464, -8.412, 0.136, -2.54, 0.016, -0.564, -4.196, 0.716, 3.964, 0.08, -0.76, -0.212, -20.48]
---
header: 
  seq: 440136
  stamp: 
    secs: 1442601898
    nsecs: 256715969
  frame_id: ''
name: 
  - head_nod
  - head_pan
  - left_e0
  - left_e1
  - left_s0
  - left_s1
  - left_w0
  - left_w1
  - left_w2
  - right_e0
  - right_e1
  - right_s0
  - right_s1
  - right_w0
  - right_w1
  - right_w2
  - torso_t0
position: [0.0, -0.06327670742797852, -0.014956312664794923, -0.0487038899597168, 0.01955825502319336, 0.06250971703491211, 0.17602429520874024, -0.005752427947998047, -1.7679128560180666, -0.07516505852050782, 0.9115680821594239, 0.03988350043945313, 0.47323307252197266, -0.38081073015747074, -0.13038836682128907, 3.041500403704834, -12.565987104803467]
velocity: [0.0, -0.014231267058849336, 0.008239154613018036, 0.00898816866874695, 0.0022470421671867374, 0.005992112445831299, -0.011984224891662598, -0.004868591362237931, 0.0011235210835933687, -0.011984224891662598, 0.010486196780204774, -0.032956618452072144, -0.0026215491950511934, -0.005243098390102387, 0.008239154613018036, -0.007490140557289124, 0.0]
effort: [0.0, 0.0, -1.084, -17.568, -1.308, -8.412, 0.128, -2.54, 0.028, -0.5, -4.104, 0.748, 3.932, 0.088, -0.74, -0.232, -20.48]
---
header: 
  seq: 440137
  stamp: 
    secs: 1442601898
    nsecs: 266716853
  frame_id: ''
name: 
  - head_nod
  - head_pan
  - left_e0
  - left_e1
  - left_s0
  - left_s1
  - left_w0
  - left_w1
  - left_w2
  - right_e0
  - right_e1
  - right_s0
  - right_s1
  - right_w0
  - right_w1
  - right_w2
  - torso_t0
position: [0.0, -0.06289321223144531, -0.015339807861328126, -0.04755340437011719, 0.019941750219726564, 0.06289321223144531, 0.17525730481567384, -0.005752427947998047, -1.7686798464111328, -0.07593204891357422, 0.9111845869628907, 0.04141748122558594, 0.4736165677185059, -0.38081073015747074, -0.13000487162475588, 3.0418838989013675, -12.565987104803467]
velocity: [0.0, -0.023593942755460742, 0.007115633529424668, 0.018350844365358353, -0.005617605417966843, 0.0007490140557289124, -0.013482253003120424, 0.005617605417966843, -0.004494084334373475, 0.010486196780204774, 0.012358731919527055, -0.023968449783325196, 0.003745070278644562, -0.005617605417966843, -0.016478309226036072, 0.006741126501560212, 0.0]
effort: [0.0, 0.0, -0.956, -17.568, -1.34, -8.412, 0.136, -2.54, 0.016, -0.468, -4.136, 0.84, 3.932, 0.088, -0.72, -0.212, -20.48]
---
header: 
  seq: 440138
  stamp: 
    secs: 1442601898
    nsecs: 276717864
  frame_id: ''
name: 
  - head_nod
  - head_pan
  - left_e0
  - left_e1
  - left_s0
  - left_s1
  - left_w0
  - left_w1
  - left_w2
  - right_e0
  - right_e1
  - right_s0
  - right_s1
  - right_w0
  - right_w1
  - right_w2
  - torso_t0
position: [0.0, -0.06327670742797852, -0.014956312664794923, -0.04793689956665039, 0.01955825502319336, 0.06327670742797852, 0.17602429520874024, -0.005752427947998047, -1.7679128560180666, -0.07554855371704101, 0.9111845869628907, 0.04065049083251954, 0.4736165677185059, -0.3804272349609375, -0.12923788123168947, 3.041116908508301, -12.565987104803467]
velocity: [0.0, 0.023593942755460742, 0.005992112445831299, -0.008613661640882493, -0.014605774086713793, 0.010486196780204774, -0.04269380117654801, -0.01610380219817162, -0.0026215491950511934, -0.006741126501560212, -0.021346900588274004, 0.031084083312749866, 0.005992112445831299, -0.013856760030984879, -0.014980281114578248, 0.015354788142442705, 0.0]
effort: [0.0, 0.0, -1.052, -17.54, -1.308, -8.412, 0.128, -2.54, 0.016, -0.5, -4.136, 0.776, 3.932, 0.1, -0.692, -0.24, -20.48]
---
header: 
  seq: 440139
  stamp: 
    secs: 1442601898
    nsecs: 286715614
  frame_id: ''
name: 
  - head_nod
  - head_pan
  - left_e0
  - left_e1
  - left_s0
  - left_s1
  - left_w0
  - left_w1
  - left_w2
  - right_e0
  - right_e1
  - right_s0
  - right_s1
  - right_w0
  - right_w1
  - right_w2
  - torso_t0
position: [0.0, -0.06327670742797852, -0.014956312664794923, -0.04716990917358399, 0.01955825502319336, 0.06250971703491211, 0.17564080001220705, -0.004985437554931641, -1.7682963512145997, -0.07593204891357422, 0.9111845869628907, 0.04065049083251954, 0.47323307252197266, -0.3804272349609375, -0.12962137642822266, 3.0403499181152345, -12.565987104803467]
